[
  {
    "name": "直島",
    "prefecture": "香川県",
    "region": "瀬戸内海",
    "lat": 34.4614,
    "lng": 133.9956,
    "population": 3100,
    "hints": ["現代アートの聖地として世界的に有名。", "草間彌生の黄色いかぼちゃがシンボル。", "瀬戸内海に浮かぶ小さな島。"],
    "wiki_title": "直島町",
    "difficulty": "easy",
    "image_urls": [],
    "has_streetview": false
  },
  {
    "name": "厳島",
    "prefecture": "広島県",
    "region": "瀬戸内海",
    "lat": 34.2961,
    "lng": 132.3197,
    "population": 1500,
    "hints": ["世界遺産に登録された神社がある。", "海に浮かぶ大鳥居で有名。", "日本三景の一つ。"],
    "wiki_title": "厳島",
    "difficulty": "easy",
    "image_urls": [],
    "has_streetview": false
  },
  {
    "name": "屋久島",
    "prefecture": "鹿児島県",
    "region": "九州",
    "lat": 30.3553,
    "lng": 130.5064,
    "population": 12000,
    "hints": ["世界自然遺産に登録。", "樹齢数千年の縄文杉がある。", "月に35日雨が降ると言われる。"],
    "wiki_title": "屋久島",
    "difficulty": "easy",
    "image_urls": [],
    "has_streetview": false
  },
  {
    "name": "軍艦島",
    "prefecture": "長崎県",
    "region": "九州",
    "lat": 32.6275,
    "lng": 129.7383,
    "population": 0,
    "hints": ["正式名称は端島。", "世界文化遺産に登録。", "かつて炭鉱で栄えた無人島。"],
    "wiki_title": "端島_(長崎県)",
    "difficulty": "easy",
    "image_urls": [],
    "has_streetview": false
  },
  {
    "name": "石垣島",
    "prefecture": "沖縄県",
    "region": "沖縄",
    "lat": 24.3336,
    "lng": 124.1557,
    "population": 49000,
    "hints": ["八重山諸島の中心的な島。", "川平湾は日本有数の景勝地。", "マンタが見られるダイビングスポット。"],
    "wiki_title": "石垣島",
    "difficulty": "easy",
    "image_urls": [],
    "has_streetview": false
  },
  {
    "name": "小豆島",
    "prefecture": "香川県",
    "region": "瀬戸内海",
    "lat": 34.4833,
    "lng": 134.2500,
    "population": 26000,
    "hints": ["オリーブの産地として有名。", "醤油の生産が盛ん。", "二十四の瞳の舞台。"],
    "wiki_title": "小豆島",
    "difficulty": "easy",
    "image_urls": [],
    "has_streetview": false
  },
  {
    "name": "宮古島",
    "prefecture": "沖縄県",
    "region": "沖縄",
    "lat": 24.7936,
    "lng": 125.2778,
    "population": 55000,
    "hints": ["東洋一美しいと称される砂浜がある。", "宮古ブルーの海で知られる。", "伊良部大橋で結ばれている。"],
    "wiki_title": "宮古島",
    "difficulty": "easy",
    "image_urls": [],
    "has_streetview": false
  },
  {
    "name": "対馬",
    "prefecture": "長崎県",
    "region": "九州",
    "lat": 34.2500,
    "lng": 129.3333,
    "population": 29000,
    "hints": ["韓国まで約50kmの国境の島。", "ツシマヤマネコの生息地。", "古くから大陸との交流拠点。"],
    "wiki_title": "対馬",
    "difficulty": "normal",
    "image_urls": [],
    "has_streetview": false
  },
  {
    "name": "奄美大島",
    "prefecture": "鹿児島県",
    "region": "九州",
    "lat": 28.3858,
    "lng": 129.4939,
    "population": 60000,
    "hints": ["世界自然遺産に登録。", "アマミノクロウサギの生息地。", "大島紬の産地。"],
    "wiki_title": "奄美大島",
    "difficulty": "easy",
    "image_urls": [],
    "has_streetview": false
  },
  {
    "name": "種子島",
    "prefecture": "鹿児島県",
    "region": "九州",
    "lat": 30.6000,
    "lng": 131.0000,
    "population": 29000,
    "hints": ["日本初のロケット打ち上げ基地がある。", "鉄砲伝来の地として知られる。", "サーフィンのメッカ。"],
    "wiki_title": "種子島",
    "difficulty": "easy",
    "image_urls": [],
    "has_streetview": false
  },
  {
    "name": "西表島",
    "prefecture": "沖縄県",
    "region": "沖縄",
    "lat": 24.3500,
    "lng": 123.8333,
    "population": 2400,
    "hints": ["島の90%が亜熱帯の原生林。", "イリオモテヤマネコの生息地。", "世界自然遺産に登録。"],
    "wiki_title": "西表島",
    "difficulty": "easy",
    "image_urls": [],
    "has_streetview": false
  },
  {
    "name": "竹富島",
    "prefecture": "沖縄県",
    "region": "沖縄",
    "lat": 24.3283,
    "lng": 124.0844,
    "population": 350,
    "hints": ["赤瓦の集落が重要伝統的建造物群。", "水牛車での観光が有名。", "石垣島からフェリーで約10分。"],
    "wiki_title": "竹富島",
    "difficulty": "normal",
    "image_urls": [],
    "has_streetview": false
  },
  {
    "name": "壱岐島",
    "prefecture": "長崎県",
    "region": "九州",
    "lat": 33.7833,
    "lng": 129.7000,
    "population": 25000,
    "hints": ["魏志倭人伝に一支国として登場。", "麦焼酎発祥の地。", "玄界灘に浮かぶ歴史の島。"],
    "wiki_title": "壱岐島",
    "difficulty": "normal",
    "image_urls": [],
    "has_streetview": false
  },
  {
    "name": "淡路島",
    "prefecture": "兵庫県",
    "region": "瀬戸内海",
    "lat": 34.3500,
    "lng": 134.8500,
    "population": 125000,
    "hints": ["瀬戸内海最大の島。", "玉ねぎの名産地。", "明石海峡大橋で本州と繋がる。"],
    "wiki_title": "淡路島",
    "difficulty": "easy",
    "image_urls": [],
    "has_streetview": false
  },
  {
    "name": "与論島",
    "prefecture": "鹿児島県",
    "region": "九州",
    "lat": 27.0500,
    "lng": 128.4167,
    "population": 5000,
    "hints": ["鹿児島県最南端の有人島。", "百合ヶ浜は幻のビーチと呼ばれる。", "沖縄本島まで約23km。"],
    "wiki_title": "与論島",
    "difficulty": "normal",
    "image_urls": [],
    "has_streetview": false
  },
  {
    "name": "波照間島",
    "prefecture": "沖縄県",
    "region": "沖縄",
    "lat": 24.0569,
    "lng": 123.8058,
    "population": 490,
    "hints": ["日本最南端の有人島。", "ニシ浜は日本屈指の美しいビーチ。", "南十字星が見える島。"],
    "wiki_title": "波照間島",
    "difficulty": "normal",
    "image_urls": [],
    "has_streetview": false
  },
  {
    "name": "犬島",
    "prefecture": "岡山県",
    "region": "瀬戸内海",
    "lat": 34.5492,
    "lng": 134.0372,
    "population": 30,
    "hints": ["犬島精錬所美術館がある。", "瀬戸内国際芸術祭の会場の一つ。", "岡山市唯一の有人離島。"],
    "wiki_title": "犬島",
    "difficulty": "hard",
    "image_urls": [],
    "has_streetview": false
  },
  {
    "name": "男木島",
    "prefecture": "香川県",
    "region": "瀬戸内海",
    "lat": 34.4258,
    "lng": 134.0694,
    "population": 130,
    "hints": ["斜面に密集する集落が特徴。", "瀬戸内国際芸術祭の会場。", "高松港からフェリーで約40分。"],
    "wiki_title": "男木島",
    "difficulty": "hard",
    "image_urls": [],
    "has_streetview": false
  },
  {
    "name": "与那国島",
    "prefecture": "沖縄県",
    "region": "沖縄",
    "lat": 24.4500,
    "lng": 122.9500,
    "population": 1700,
    "hints": ["日本最西端の島。", "海底遺跡で有名。", "台湾まで約111km。"],
    "wiki_title": "与那国島",
    "difficulty": "normal",
    "image_urls": [],
    "has_streetview": false
  },
  {
    "name": "久米島",
    "prefecture": "沖縄県",
    "region": "沖縄",
    "lat": 26.3333,
    "lng": 126.8000,
    "population": 7500,
    "hints": ["沖縄本島から西へ約100km。", "はての浜という無人島ビーチが有名。", "久米島紬の産地。"],
    "wiki_title": "久米島",
    "difficulty": "normal",
    "image_urls": [],
    "has_streetview": false
  }
]
